City_ID,City,Lat,Lng,Max Temp,Humidity,Cloudiness,Wind Speed,Country,Date
0,edinburgh of the seven seas,-37.0676,-12.3116,11.420000000000016,72,20,14.52,SH,1724983298
1,port-aux-francais,-49.35,70.2167,3.2700000000000387,70,99,11.76,TF,1724983289
2,touba,8.2833,-7.6833,21.010000000000048,98,100,3.15,CI,1724983300
3,margaret river,-33.95,115.0667,13.870000000000005,64,17,9.16,AU,1724983302
4,sisimiut,66.9395,-53.6735,5.2900000000000205,78,100,1.34,GL,1724983303
5,punta arenas,-53.15,-70.9167,6.060000000000002,70,0,7.2,CL,1724983113
6,labuan bajo,-8.4964,119.8877,29.150000000000034,62,8,2.69,ID,1724983305
7,simpang,-1.2667,104.0833,28.970000000000027,64,100,1.93,ID,1724983306
8,kodiak,57.79,-152.4072,11.300000000000011,81,100,3.23,US,1724983307
9,guerrero negro,27.9769,-114.0611,20.74000000000001,77,0,7.93,MX,1724983308
10,puerto natales,-51.7236,-72.4875,2.6100000000000136,89,100,1.8,CL,1724983079
11,west island,-12.1568,96.8225,26.99000000000001,74,100,8.23,CC,1724983311
12,bethel,41.3712,-73.414,20.08000000000004,82,100,2.37,US,1724983037
13,saipan,15.1355,145.701,29.110000000000014,79,100,7.01,MP,1724983313
14,mount pearl,47.5166,-52.7813,12.300000000000011,77,75,5.14,CA,1724983314
15,gadzhiyevo,69.2551,33.3362,11.390000000000043,83,100,6.29,RU,1724983315
16,thompson,55.7435,-97.8558,14.090000000000032,100,75,1.03,CA,1724983234
17,ilulissat,69.2167,-51.1,4.010000000000048,87,75,0.51,GL,1724983317
18,mugia,43.1041,-9.2179,18.28000000000003,84,100,8.82,ES,1724983318
19,port macquarie,-31.4333,152.9167,27.260000000000048,35,0,4.02,AU,1724983319
20,geraldton,-28.7667,114.6,17.230000000000018,67,75,6.17,AU,1724983320
21,mana,5.6592,-53.7767,26.010000000000048,85,100,4.08,GF,1724983322
22,east london,-33.0153,27.9116,10.760000000000048,69,2,3.23,ZA,1724983232
23,colonia,50.9333,6.95,20.25,83,0,2.06,DE,1724983321
24,hamilton,39.1834,-84.5333,28.010000000000048,75,0,0.0,US,1724982630
25,dudinka,69.4058,86.1778,11.430000000000007,96,100,3.13,RU,1724983326
26,waitangi,-43.9535,-176.5597,13.79000000000002,91,55,2.68,NZ,1724983288
27,guane,22.2025,-84.0875,26.120000000000005,88,80,1.33,CU,1724983328
28,lamu,-2.2717,40.902,24.32000000000005,81,26,6.01,KE,1724983329
29,hermanus,-34.4187,19.2345,7.189999999999998,84,9,5.06,ZA,1724983330
30,harper,4.375,-7.7169,23.610000000000014,88,100,3.99,LR,1724983331
31,puerto ayora,-0.7393,-90.3518,19.189999999999998,98,93,1.34,EC,1724983332
32,luderitz,-26.6481,15.1594,15.75,41,0,3.13,NA,1724983334
33,nikolayevsk-on-amure,53.1406,140.73,22.460000000000036,60,100,2.48,RU,1724983335
34,yangambi,0.8102,24.4336,21.55000000000001,99,100,0.45,CD,1724983153
35,lorengau,-2.0226,147.2712,26.970000000000027,85,100,2.98,PG,1724983337
36,praia da vitoria,38.7333,-27.0667,23.75,83,20,3.78,PT,1724983338
37,grytviken,-54.2811,-36.5092,0.18999999999999773,93,100,1.51,GS,1724983154
38,fale old settlement,-9.3852,-171.2468,27.210000000000036,77,96,6.64,TK,1724983342
39,papatowai,-46.5619,169.4708,11.350000000000023,66,6,6.44,NZ,1724983343
40,westport,41.1415,-73.3579,21.75,81,92,5.36,US,1724983203
41,prince george,53.9166,-122.753,23.689999999999998,38,0,0.0,CA,1724983345
42,bredasdorp,-34.5322,20.0403,4.930000000000007,89,5,2.06,ZA,1724983346
43,conway,35.0887,-92.4421,25.25,78,100,1.48,US,1724983227
44,isafjordur,66.0755,-23.124,7.670000000000016,84,100,9.22,IS,1724983348
45,stanley,54.868,-1.6985,10.010000000000048,89,0,3.09,GB,1724983349
46,qamdo,31.1667,97.2333,14.360000000000014,51,51,0.58,CN,1724983350
47,archangelos,36.2149,28.1149,26.28000000000003,68,0,5.43,GR,1724983351
48,narra,9.3167,118.4,29.870000000000005,67,89,2.95,PH,1724983352
49,argo,37.6333,22.7333,23.120000000000005,66,5,1.59,GR,1724983354
50,cabo san lucas,22.8909,-109.9124,27.010000000000048,73,0,4.43,MX,1724983355
51,saint-philippe,-21.3585,55.7679,20.77000000000004,78,50,7.2,RE,1724983356
52,tateyama,34.9833,139.8667,27.54000000000002,88,99,8.83,JP,1724983357
53,longyearbyen,78.2186,15.6401,10.910000000000025,76,75,3.09,SJ,1724983358
54,blackmans bay,-43.0167,147.3167,12.07000000000005,73,7,1.34,AU,1724983359
55,sao paulo de olivenca,-3.3783,-68.8725,26.870000000000005,52,27,0.95,BR,1724983360
56,ancud,-41.8697,-73.8203,5.930000000000007,83,7,1.72,CL,1724983361
57,carnarvon,-24.8667,113.6333,19.410000000000025,58,9,9.57,AU,1724983362
58,mili,6.0815,171.735,28.870000000000005,76,100,7.75,MH,1724983363
59,conceicao da barra,-18.5933,-39.7322,21.08000000000004,71,53,2.6,BR,1724983364
60,constantia,44.1833,28.65,20.390000000000043,85,77,7.1,RO,1724983366
61,whitehorse,60.7161,-135.0538,13.900000000000034,59,75,7.72,CA,1724983144
62,abeche,13.8292,20.8324,23.870000000000005,90,100,3.54,TD,1724983368
63,tan-tan,28.438,-11.1032,20.57000000000005,78,89,7.59,MA,1724983369
64,revda,56.801,59.9303,9.310000000000002,89,45,2.39,RU,1724983370
65,colesberg,-30.72,25.0972,-0.01999999999998181,47,0,3.89,ZA,1724983371
66,bilibino,68.0546,166.4372,7.020000000000039,48,19,1.32,RU,1724983372
67,lebu,-37.6167,-73.65,8.400000000000034,92,0,0.12,CL,1724983373
68,adamstown,-25.066,-130.1015,18.950000000000045,68,61,6.28,PN,1724983374
69,naryn,41.4287,75.9911,11.590000000000032,46,4,0.65,KG,1724983375
70,ilomantsi,62.6716,30.9328,11.230000000000018,95,0,2.1,FI,1724983376
71,buala,-8.145,159.5921,28.700000000000045,73,99,4.69,SB,1724983377
72,hawaiian paradise park,19.5933,-154.9731,28.74000000000001,83,12,1.34,US,1724983379
73,chibougamau,49.9168,-74.3659,10.79000000000002,87,0,0.0,CA,1724983306
74,coxim,-18.5067,-54.76,26.370000000000005,26,0,1.68,BR,1724983381
75,kill devil hills,36.0307,-75.676,28.32000000000005,84,0,3.6,US,1724983383
76,la'ie,21.6477,-157.9253,30.980000000000018,79,14,3.58,US,1724983384
77,oranjemund,-28.55,16.4333,14.439999999999998,27,0,5.26,NA,1724983385
78,jamestown,42.097,-79.2353,20.57000000000005,90,75,2.57,US,1724983233
79,fortuna,40.5982,-124.1573,18.29000000000002,80,0,4.63,US,1724983387
80,atafu village,-8.5421,-172.5159,28.32000000000005,75,23,7.6,TK,1724983388
81,alachua,29.7086,-82.3332,25.400000000000034,66,0,2.06,US,1724983390
82,coquimbo,-29.9533,-71.3436,11.850000000000023,63,100,1.03,CL,1724983210
83,badger,64.8,-147.5333,15.560000000000002,75,92,0.45,US,1724983392
84,shimoda,34.6667,138.95,27.470000000000027,89,100,4.0,JP,1724983393
85,anadyr,64.75,177.4833,7.28000000000003,93,100,3.0,RU,1724983273
86,hadibu,12.65,54.0333,26.5,82,59,8.86,YE,1724983395
87,iqaluit,63.7506,-68.5145,6.850000000000023,93,100,4.63,CA,1724983304
88,yeppoon,-23.1333,150.7333,24.900000000000034,58,0,4.08,AU,1724983397
89,shingu,33.7333,135.9833,27.470000000000027,93,100,2.89,JP,1724983398
90,biltine,14.5333,20.9167,24.980000000000018,83,100,2.5,TD,1724983399
91,karacoban,39.3492,42.1124,18.03000000000003,54,15,1.72,TR,1724983400
92,arraial do cabo,-22.9661,-42.0278,18.980000000000018,94,0,4.12,BR,1724983401
93,ust-nera,64.5667,143.2,5.430000000000007,99,100,0.7,RU,1724983403
94,albany,42.6001,-73.9662,19.210000000000036,87,24,1.39,US,1724983210
95,sabang,5.8933,95.3214,27.670000000000016,74,100,5.28,ID,1724983405
96,reggane,26.7158,0.1714,36.22000000000003,22,98,5.93,DZ,1724983153
97,howard springs,-12.497,131.047,31.04000000000002,57,98,1.41,AU,1724983407
98,petropavlovsk-kamchatsky,53.0452,158.6483,22.33000000000004,49,0,3.0,RU,1724983408
99,umm ruwaba,12.9061,31.2158,25.900000000000034,76,98,1.55,SD,1724983409
100,ribeira grande,38.5167,-28.7,22.100000000000023,85,100,2.68,PT,1724983410
101,kalach,50.4258,41.0261,17.220000000000027,37,48,2.68,RU,1724983411
102,taco pozo,-25.6167,-63.2833,18.390000000000043,41,100,5.09,AR,1724983412
103,yemva,62.59,50.8594,9.110000000000014,98,31,2.37,RU,1724983413
104,coron,11.9986,120.2043,26.720000000000027,91,100,2.13,PH,1724983415
105,manismata,-2.4667,111.0333,26.129999999999995,80,100,1.71,ID,1724983416
106,avarua,-21.2078,-159.775,25.03000000000003,73,20,3.6,CK,1724983417
107,cobh,51.8572,-8.2992,11.730000000000018,90,75,3.6,IE,1724983418
108,turkmenbasy,40.0222,52.9552,22.430000000000007,28,0,6.17,TM,1724983419
109,pisco,-13.7,-76.2167,17.03000000000003,77,21,2.57,PE,1724983420
110,kerikeri,-35.2268,173.9474,18.350000000000023,51,45,2.55,NZ,1724983421
111,nuuk,64.1835,-51.7216,2.7100000000000364,93,100,2.88,GL,1724983214
112,tidjikja,18.5564,-11.4271,31.24000000000001,56,86,6.21,MR,1724983423
113,navia,43.5354,-6.7194,18.910000000000025,99,100,2.39,ES,1724983424
114,afaahiti,-17.75,-149.2833,24.55000000000001,85,13,3.69,PF,1724983425
115,tura,25.5198,90.2201,28.100000000000023,79,87,0.49,IN,1724983427
116,gao,16.6362,1.637,30.260000000000048,54,70,3.99,ML,1724983428
117,nishinoomote,30.7333,131.0,26.310000000000002,94,75,11.32,JP,1724983429
118,ponta delgada,37.7333,-25.6667,22.400000000000034,73,40,1.03,PT,1724983430
119,basoko,1.2391,23.616,21.670000000000016,97,100,2.4,CD,1724983431
120,sungai raya,0.7,108.9,28.470000000000027,72,100,0.78,ID,1724983432
121,anantapur,14.6833,77.6,25.700000000000045,73,96,7.08,IN,1724983433
122,oruro,-17.9833,-67.15,7.110000000000014,44,23,1.68,BO,1724983434
123,laguna de perlas,12.3429,-83.6712,27.27000000000004,86,100,4.09,NI,1724983435
124,flying fish cove,-10.4217,105.6791,25.82000000000005,78,40,5.66,CX,1724983423
125,keflavik,64.0049,-22.5624,10.240000000000009,93,100,7.72,IS,1724983438
126,la passe,45.5549,-0.8967,17.970000000000027,84,100,2.67,FR,1724983440
127,kirakira,-10.4544,161.9205,29.82000000000005,64,96,5.32,SB,1724983441
128,huancavelica,-12.7667,-74.9833,3.4700000000000273,81,92,1.85,PE,1724983442
129,uliastay,47.7417,96.8444,18.58000000000004,46,100,6.23,MN,1724983443
130,arkhangel'sk,64.5401,40.5433,8.060000000000002,100,40,0.0,RU,1724983444
131,kimbe,-5.5502,150.1429,32.07000000000005,60,99,3.8,PG,1724983445
132,al jawf,29.5,38.75,24.210000000000036,46,0,3.75,SA,1724983446
133,contamana,-7.3333,-75.0167,27.060000000000002,50,13,0.74,PE,1724983447
134,utrik,11.2278,169.8474,28.79000000000002,74,3,6.69,MH,1724983448
135,wailua homesteads,22.0669,-159.378,27.439999999999998,78,75,6.17,US,1724983449
136,egilsstadir,65.2653,-14.3948,2.9500000000000455,93,0,2.06,IS,1724983450
137,george town,5.4112,100.3354,29.970000000000027,78,20,3.6,MY,1724983260
138,nyangao,-10.3333,39.2833,19.920000000000016,96,45,0.94,TZ,1724983453
139,ushuaia,-54.8,-68.3,4.810000000000002,81,0,2.06,AR,1724983364
140,vorgashor,67.5833,63.95,5.610000000000014,77,100,4.95,RU,1724983399
141,vila franca do campo,37.7167,-25.4333,22.230000000000018,64,100,0.87,PT,1724983456
142,choibalsan,48.0667,114.5,18.420000000000016,45,4,5.73,MN,1724983457
143,tazovsky,67.4667,78.7,7.800000000000011,92,85,5.9,RU,1724983458
144,codrington,-38.2667,141.9667,14.560000000000002,55,7,10.83,AU,1724983459
145,port-gentil,-0.7193,8.7815,24.180000000000007,86,100,5.16,GA,1724983277
146,coyhaique,-45.5752,-72.0662,0.6100000000000136,98,72,1.41,CL,1724983280
147,anna regina,7.2644,-58.5077,26.03000000000003,88,77,2.92,GY,1724983462
148,mancio lima,-7.6142,-72.8958,26.04000000000002,78,8,0.0,BR,1724983464
149,mar del plata,-38.0023,-57.5575,9.490000000000009,68,0,4.12,AR,1724983420
150,tsagan aman,47.5639,46.7218,18.08000000000004,41,1,3.86,RU,1724983466
151,jackson,42.4165,-122.8345,33.55000000000001,30,0,1.2,US,1724983467
152,nova sintra,14.8667,-24.7167,26.5,84,100,5.74,CV,1724983468
153,tazacorte,28.629,-17.9293,21.54000000000002,76,0,4.63,ES,1724983469
154,kutum,14.2,24.6667,21.590000000000032,80,100,2.29,SD,1724983470
155,lihue,21.9789,-159.3672,27.77000000000004,76,75,6.17,US,1724983471
156,chon buri,13.3,101.3,28.08000000000004,51,91,4.54,TH,1724983472
157,windsor,42.3001,-83.0165,23.870000000000005,93,0,2.57,CA,1724983353
158,rongelap,11.1635,166.8941,28.730000000000018,78,93,6.61,MH,1724983474
159,susuman,62.7833,148.1667,7.170000000000016,89,100,0.89,RU,1724983475
160,walvis bay,-22.9575,14.5053,10.610000000000014,85,0,1.43,NA,1724983477
161,kapuskasing,49.4169,-82.4331,15.0,63,75,3.6,CA,1724983478
162,yuzhno-kurilsk,44.0306,145.8556,21.58000000000004,87,70,4.01,RU,1724983479
163,yellowknife,62.456,-114.3525,15.310000000000002,88,75,1.54,CA,1724983480
164,nadi,-17.8,177.4167,27.0,57,20,5.66,FJ,1724983481
165,vadso,70.0744,29.7487,13.090000000000032,88,75,3.6,NO,1724983482
166,arafat,39.0344,44.6198,14.770000000000039,69,0,0.22,IR,1724983483
167,acapulco de juarez,16.8634,-99.8901,25.600000000000023,78,100,1.1,MX,1724983260
168,moyamba,8.1667,-12.4333,22.310000000000002,99,69,1.15,SL,1724983485
169,port mathurin,-19.6833,63.4167,22.110000000000014,66,64,11.17,MU,1724983283
170,georgetown,5.4112,100.3354,29.970000000000027,78,20,3.6,MY,1724983280
171,sitka,57.0531,-135.33,12.939999999999998,88,100,2.57,US,1724983489
172,enewetak,11.3474,162.3373,28.890000000000043,75,77,4.81,MH,1724983460
173,hoshcha,50.6003,26.6744,18.25,42,24,3.45,UA,1724983491
174,orshanka,56.9161,47.8933,11.810000000000002,76,3,1.7,RU,1724983492
175,nemuro,43.3236,145.575,20.110000000000014,94,62,5.62,JP,1724983493
176,olonkinbyen,70.9221,-8.7187,6.5400000000000205,76,89,4.74,SJ,1724983494
177,north bend,43.4065,-124.2243,19.53000000000003,72,0,5.14,US,1724983495
178,vilyuchinsk,52.9306,158.4028,22.150000000000034,73,89,2.33,RU,1724983496
179,moyale,3.5167,39.0584,18.460000000000036,73,0,4.31,KE,1724983497
180,linxia chengguanzhen,35.6003,103.2064,22.689999999999998,66,100,1.18,CN,1724983498
181,kawambwa,-9.7915,29.0791,19.689999999999998,37,69,2.55,ZM,1724983501
182,tolanaro,-25.0319,46.9987,20.04000000000002,83,0,6.17,MG,1724983502
183,new plymouth,-39.0667,174.0833,12.950000000000045,100,19,5.44,NZ,1724983503
184,san patricio,28.017,-97.5169,28.970000000000027,71,12,5.07,US,1724983504
185,homestead meadows south,31.811,-106.1643,30.730000000000018,32,31,7.35,US,1724983505
186,male,4.1748,73.5089,28.970000000000027,84,75,6.17,MV,1724983506
187,serdar,38.9764,56.2757,20.370000000000005,30,0,4.03,TM,1724983507
188,huarmey,-10.0681,-78.1522,16.850000000000023,83,44,5.54,PE,1724983508
189,gurupi,-11.7292,-49.0686,26.79000000000002,42,1,4.76,BR,1724983246
190,lerwick,60.1545,-1.1494,11.170000000000016,92,26,7.65,GB,1724983510
191,brookings,44.3114,-96.7984,19.140000000000043,82,0,2.06,US,1724983512
192,tevriz,57.509,72.4042,10.260000000000048,94,100,2.16,RU,1724983513
193,carmelo,-33.9892,-58.2856,10.25,94,100,5.26,UY,1724983514
194,san antonio de pale,-1.4014,5.6325,24.379999999999995,78,98,3.98,GQ,1724983282
195,fraijanes,14.4653,-90.4408,19.210000000000036,89,75,2.06,GT,1724983517
196,porto novo,6.4965,2.6036,24.110000000000014,89,100,4.02,BJ,1724983518
197,danao,10.5208,124.0272,29.03000000000003,67,100,1.8,PH,1724983519
198,kidal,18.4411,1.4078,31.460000000000036,42,12,2.24,ML,1724983521
199,tsiombe,-25.3,45.4833,19.210000000000036,90,12,1.39,MG,1724983522
200,namsos,64.4662,11.4957,11.950000000000045,94,40,1.54,NO,1724983523
201,st. john's,47.5649,-52.7093,12.760000000000048,77,75,5.14,CA,1724983229
202,tanout,14.9709,8.8879,26.939999999999998,69,100,5.75,NE,1724983525
203,chernyshevsk,52.5243,117.0174,19.150000000000034,33,0,4.53,RU,1724983526
204,arteche,12.2645,125.4048,31.710000000000036,61,100,2.07,PH,1724983527
205,invercargill,-46.4,168.35,11.120000000000005,74,72,3.58,NZ,1724983528
206,ra's bayrut,33.9,35.4833,27.810000000000002,57,40,3.09,LB,1724983529
207,college,64.8569,-147.8028,15.990000000000009,68,75,5.14,US,1724983531
208,dzilam gonzalez,21.2833,-88.9333,24.730000000000018,94,100,1.55,MX,1724983532
209,iskateley,67.6803,53.1512,7.020000000000039,65,100,5.72,RU,1724983520
210,rosarito,32.3333,-117.0333,20.510000000000048,77,0,3.65,MX,1724983534
211,port lincoln,-34.7333,135.8667,15.740000000000009,54,5,11.98,AU,1724983535
212,remire-montjoly,4.9167,-52.2667,24.02000000000004,94,0,1.03,GF,1724983536
213,mirriah,13.7073,9.1501,23.180000000000007,89,100,6.47,NE,1724983537
214,ternate,0.8,127.4,24.370000000000005,87,100,1.59,ID,1724983540
215,kavalerovo,44.2661,135.0572,25.82000000000005,48,100,1.88,RU,1724983542
216,salinopolis,-0.6136,-47.3561,26.629999999999995,81,8,5.54,BR,1724983544
217,qaisumah,28.3112,46.1273,28.980000000000018,17,0,2.57,SA,1724983545
218,guapiles,10.2159,-83.7866,24.060000000000002,96,100,1.35,CR,1724983546
219,kulhudhuffushi,6.6221,73.07,27.900000000000034,79,100,5.61,MV,1724983547
220,brigantine,39.4101,-74.3646,22.110000000000014,87,100,5.66,US,1724983341
221,howrah,22.5892,88.3103,31.0,84,40,2.06,IN,1724983549
222,attock city,33.7731,72.3741,24.110000000000014,83,99,0.71,PK,1724983550
223,katsuura,35.1333,140.3,27.760000000000048,87,85,9.93,JP,1724983447
224,northam,51.0333,-4.2167,12.640000000000043,82,100,0.59,GB,1724983552
225,kindu,-2.95,25.95,20.180000000000007,95,100,0.97,CD,1724983554
226,mejit,10.2753,170.8646,28.78000000000003,75,12,5.93,MH,1724983555
227,princeville,45.7668,-61.2985,14.730000000000018,80,75,3.09,CA,1724983556
228,glace bay,46.1969,-59.957,14.920000000000016,82,99,2.24,CA,1724983557
229,kavieng,-2.5744,150.7967,28.77000000000004,77,100,8.12,PG,1724983558
230,bumba,2.1833,22.4667,21.610000000000014,97,100,1.1,CD,1724983560
231,lompoc,34.6391,-120.4579,16.960000000000036,81,75,4.12,US,1724983280
232,springfield,37.2153,-93.2982,29.430000000000007,64,98,3.58,US,1724983191
233,aldama,22.9167,-98.0667,27.110000000000014,89,36,0.99,MX,1724983564
234,ola,59.5833,151.2833,9.480000000000018,91,100,5.25,RU,1724983565
235,namibe,-15.1961,12.1522,16.960000000000036,92,100,5.48,AO,1724983566
236,chinde,26.8212,87.7095,28.160000000000025,71,9,0.71,NP,1724983567
237,bardai,11.65,7.2333,20.870000000000005,96,100,4.76,NG,1724983568
238,sinabang,2.4803,96.3801,27.450000000000045,81,66,2.01,ID,1724983356
239,puerto madryn,-42.7692,-65.0385,9.760000000000048,55,0,6.84,AR,1724983324
240,hithadhoo,-0.6,73.0833,28.460000000000036,77,79,6.18,MV,1724983385
241,brokopondo,4.75,-55.1667,25.55000000000001,86,91,3.82,SR,1724983572
242,abong mbang,3.9833,13.1833,19.720000000000027,99,100,1.41,CM,1724983575
243,oum el bouaghi,35.8754,7.1135,22.28000000000003,49,1,1.5,DZ,1724983576
244,zheleznodorozhnyy,55.7503,38.0042,12.75,74,3,1.89,RU,1724983577
245,new norfolk,-42.7826,147.0587,12.730000000000018,64,2,7.22,AU,1724983578
246,sao lourenco do oeste,-26.3592,-52.8511,15.840000000000032,57,0,1.75,BR,1724983579
247,laguna,38.421,-121.4238,32.58000000000004,35,0,5.66,US,1724983580
248,gaiman,-43.2897,-65.4929,8.110000000000014,45,0,6.15,AR,1724983581
249,pariaman,-0.619,100.12,27.03000000000003,77,100,0.17,ID,1724983582
250,nuku'alofa,-21.1333,-175.2,25.189999999999998,88,40,7.2,TO,1724983583
251,daru,-9.0763,143.2092,27.30000000000001,71,99,6.06,PG,1724983585
252,ulladulla,-35.35,150.4667,23.720000000000027,35,1,5.47,AU,1724983586
253,chamzinka,54.4019,45.7839,14.310000000000002,68,0,1.99,RU,1724983587
254,turpan,42.9333,89.1667,31.28000000000003,29,100,1.34,CN,1724983588
255,tiksi,71.6872,128.8694,4.32000000000005,75,7,2.88,RU,1724983589
256,thinadhoo,0.5333,72.9333,28.52000000000004,76,78,5.74,MV,1724983590
257,napili-honokowai,20.9708,-156.6705,29.100000000000023,99,16,6.61,US,1724983591
258,yanam,16.7333,82.2167,22.879999999999995,98,100,2.58,IN,1724983592
259,panaba,21.2833,-88.2667,25.180000000000007,90,100,2.49,MX,1724983593
260,crane,31.3974,-102.3501,28.340000000000032,50,100,3.02,US,1724983595
261,kingscliff,-28.2667,153.5667,29.410000000000025,60,0,8.23,AU,1724983596
262,kruisfontein,-34.0033,24.7314,5.939999999999998,85,0,2.57,ZA,1724983349
263,la mira,18.035,-102.3266,26.74000000000001,84,83,2.37,MX,1724983598
264,usinsk,65.9939,57.5281,6.340000000000032,70,100,7.26,RU,1724983599
265,page,36.9147,-111.4558,32.879999999999995,18,0,4.47,US,1724983600
266,san luis de la loma,17.2706,-100.8939,27.629999999999995,78,99,1.47,MX,1724983601
267,lospalos,-8.5186,127.0025,26.930000000000007,53,32,5.27,TL,1724983602
268,itororo,-15.1169,-40.0703,15.670000000000016,95,27,0.4,BR,1724983603
269,blenheim,-41.516,173.9528,15.29000000000002,54,9,3.13,NZ,1724983604
270,hsinchu,24.8036,120.9686,32.960000000000036,66,20,0.89,TW,1724983606
271,mariehamn,60.0973,19.9348,18.920000000000016,88,100,5.14,AX,1724983607
272,lesozavodsk,45.4794,133.4244,23.060000000000002,78,100,4.86,RU,1724983608
273,anse la raye,13.9333,-61.0333,26.80000000000001,100,100,5.55,LC,1724983609
274,dawesville,30.9224,-84.0091,27.980000000000018,80,0,2.24,US,1724983610
275,vilhena,-12.7406,-60.1458,24.590000000000032,33,0,2.17,BR,1724983361
276,ribeira brava,32.65,-17.0667,22.620000000000005,67,60,2.7,PT,1724983612
277,port elizabeth,-33.918,25.5701,8.160000000000025,89,20,2.57,ZA,1724983514
278,midvagur,62.0511,-7.1939,10.460000000000036,87,75,4.63,FO,1724983614
279,tromso,69.6496,18.957,10.010000000000048,93,0,0.0,NO,1724983615
280,qaqortoq,60.7167,-46.0333,4.580000000000041,98,92,1.47,GL,1724983616
281,zalari,53.5584,102.5065,15.580000000000041,67,100,3.36,RU,1724983617
282,at taj,24.2049,23.2857,30.08000000000004,29,100,6.37,LY,1724983619
283,san pedro pochutla,15.7333,-96.4667,28.170000000000016,83,100,1.34,MX,1724983620
284,klyuchi,52.2667,79.1667,16.610000000000014,77,100,3.87,RU,1724983621
285,dazhou,31.2159,107.5009,30.75,56,7,2.15,CN,1724983622
286,hasaki,35.7333,140.8333,27.260000000000048,85,100,9.13,JP,1724983623
287,karungdong,5.8844,121.263,25.379999999999995,87,100,3.79,PH,1724983624
288,zhanibek,49.4167,46.85,19.77000000000004,32,71,2.37,KZ,1724983625
289,holualoa,19.6228,-155.9522,27.910000000000025,92,40,5.14,US,1724983626
290,kourou,5.1552,-52.6478,24.920000000000016,94,96,3.69,GF,1724983627
291,fort bragg,35.139,-79.006,29.390000000000043,76,0,3.09,US,1724983628
292,fauske,67.2588,15.3918,15.260000000000048,84,100,4.52,NO,1724983629
293,labytnangi,66.6572,66.4183,7.840000000000032,74,98,4.77,RU,1724983631
294,fisterra,42.9049,-9.2629,18.58000000000004,83,100,8.79,ES,1724983632
295,peace river,56.2501,-117.286,17.939999999999998,55,93,1.5,CA,1724983633
296,lodja,-3.4833,23.4333,20.870000000000005,93,93,0.78,CD,1724983634
297,quellon,-43.1167,-73.6167,6.0400000000000205,78,5,2.94,CL,1724983635
298,vila velha,-20.3297,-40.2925,18.30000000000001,90,0,1.34,BR,1724983632
299,uturoa,-16.7333,-151.4333,26.5,78,26,4.2,PF,1724983476
300,montepuez,-13.1256,38.9997,20.810000000000002,80,90,2.07,MZ,1724983638
301,baoding,38.8511,115.4903,27.120000000000005,72,7,0.89,CN,1724983639
302,aasiaat,68.7098,-52.8699,0.9300000000000068,93,100,4.15,GL,1724983640
303,talara,-4.5772,-81.2719,17.420000000000016,94,0,8.75,PE,1724983641
304,altoona,40.5187,-78.3947,22.560000000000002,82,24,1.49,US,1724983426
305,istgah-e rah ahan-e garmsar,35.2346,52.3094,25.360000000000014,22,0,2.17,IR,1724983645
306,yatou,37.15,122.3833,27.83000000000004,63,2,2.03,CN,1724983646
307,ghat,24.9647,10.1728,30.600000000000023,23,6,4.88,LY,1724983647
308,mauldin,34.7787,-82.3101,25.420000000000016,86,89,1.86,US,1724983648
309,morehead city,34.7229,-76.726,27.79000000000002,89,100,1.79,US,1724983649
310,semenov,56.7875,44.493,12.04000000000002,82,6,1.84,RU,1724983650
311,hiratacho,35.4333,132.8167,30.30000000000001,72,99,6.56,JP,1724983651
312,moussoro,13.6408,16.4901,24.660000000000025,85,100,4.05,TD,1724983653
313,alaghsas,17.0187,8.0168,31.689999999999998,42,100,3.72,NE,1724983654
314,hotan,37.0997,79.9269,20.980000000000018,65,100,2.97,CN,1724983655
315,taihecun,45.8,130.85,25.29000000000002,66,100,0.61,CN,1724983656
316,nelson bay,-32.7167,152.15,25.80000000000001,39,15,3.93,AU,1724983657
317,williams lake,52.1415,-122.1445,23.650000000000034,36,2,0.78,CA,1724983658
318,dul'durga,50.6761,113.5931,18.650000000000034,42,0,5.55,RU,1724983659
319,buckie,57.6757,-2.9624,12.25,80,94,7.85,GB,1724983660
320,fenoarivo be,-18.4333,46.5667,13.310000000000002,78,3,3.79,MG,1724983661
321,zaozersk,69.4005,32.4476,11.430000000000007,85,100,4.34,RU,1724983662
322,kuqa,41.7278,82.9364,24.08000000000004,22,100,3.35,CN,1724983663
323,drama,41.1544,24.1394,18.600000000000023,77,7,2.6,GR,1724983665
324,corralillo,22.9819,-80.5856,27.350000000000023,85,29,5.59,CU,1724983666
325,farsan,32.2569,50.561,17.110000000000014,27,0,1.68,IR,1724983667
326,olyokminsk,60.3736,120.4264,9.660000000000025,92,99,2.99,RU,1724983668
327,zhanaozen,43.3,52.8,20.100000000000023,32,0,4.49,KZ,1724983669
328,polatli,39.5772,32.1413,19.960000000000036,60,3,2.15,TR,1724983670
329,alice springs,-23.7,133.8833,32.75,15,1,6.17,AU,1724983671
330,timimoun,29.2639,0.231,33.19,32,64,5.25,DZ,1724983672
331,natal,-5.795,-35.2094,24.360000000000014,83,75,5.14,BR,1724983586
332,severoural'sk,60.1533,59.952,8.430000000000007,83,100,1.52,RU,1724983674
333,baneasa,44.0461,26.0642,17.370000000000005,89,26,1.21,RO,1724983675
334,narvik,68.4384,17.4272,17.370000000000005,72,98,4.12,NO,1724983677
335,sao jose da coroa grande,-8.8978,-35.1478,23.879999999999995,78,20,6.58,BR,1724983678
336,dalhart,36.0595,-102.5133,21.379999999999995,82,100,6.17,US,1724983679
337,igarka,67.4667,86.5833,11.770000000000039,98,100,1.92,RU,1724983680
338,baker city,44.7749,-117.8344,25.840000000000032,21,0,1.54,US,1724983622
339,dharmadam,11.7833,75.4333,25.25,86,100,1.03,IN,1724983682
340,vernon,50.2581,-119.2691,24.310000000000002,51,3,0.59,CA,1724983683
341,hammerfest,70.6634,23.6821,14.25,82,41,2.57,NO,1724983684
342,luanda,-8.8368,13.2343,20.950000000000045,88,100,2.59,AO,1724983685
343,polyarnyy,69.1989,33.4478,11.460000000000036,81,100,6.93,RU,1724983687
344,newman,37.3138,-121.0208,32.24000000000001,31,0,2.24,US,1724983689
345,puerto maldonado,-12.6,-69.1833,24.850000000000023,44,7,0.7,PE,1724983690
346,kone,-21.0595,164.8658,28.30000000000001,37,0,1.33,NC,1724983428
347,naze,28.3667,129.4833,30.510000000000048,75,100,4.45,JP,1724983396
348,robertson,36.5167,-86.8667,27.439999999999998,66,30,3.18,US,1724983693
349,seydi,39.4816,62.9137,21.420000000000016,31,0,4.78,TM,1724983694
350,dapa,9.7594,126.0531,28.28000000000003,77,100,1.83,PH,1724983695
351,port shepstone,-30.7414,30.455,14.29000000000002,62,99,3.13,ZA,1724983696
352,veseloyarsk,51.2836,81.1056,18.650000000000034,49,84,5.79,RU,1724983697
353,weno,7.4515,151.8468,31.970000000000027,84,40,3.6,FM,1724983698
354,rio rico,31.4715,-110.9765,22.140000000000043,60,53,1.51,US,1724983699
355,kenora,49.8167,-94.4337,17.100000000000023,82,0,4.92,CA,1724983679
356,udachny,66.4167,112.4,12.310000000000002,49,1,2.87,RU,1724983702
357,formosa do rio preto,-11.0483,-45.1931,22.420000000000016,65,78,3.09,BR,1724983703
358,mwene-ditu,-7.0,23.45,25.100000000000023,44,78,2.16,CD,1724983704
359,sur,22.5667,59.5289,30.110000000000014,60,100,2.31,OM,1724983705
360,mermoz boabab,14.7065,-17.4758,27.360000000000014,82,100,3.1,SN,1724983706
361,talnakh,69.4865,88.3972,11.480000000000018,94,100,2.4,RU,1724983707
362,lokhvytsya,50.3678,33.2602,18.840000000000032,40,12,3.3,UA,1724983708
363,mhamid,29.82,-5.72,31.689999999999998,17,2,3.24,MA,1724983709
364,jayapura,-2.5333,140.7,31.660000000000025,64,100,2.29,ID,1724983710
365,eydhafushi,5.1033,73.0708,28.180000000000007,77,100,5.24,MV,1724983711
366,takoradi,4.8845,-1.7554,22.82000000000005,94,52,3.61,GH,1724983712
367,dunedin,-45.8742,170.5036,13.140000000000043,51,50,4.6,NZ,1724983714
368,vallegrande,-18.4897,-64.1069,11.870000000000005,69,5,3.11,BO,1724983715
369,argostolion,38.1811,20.489,25.410000000000025,45,7,2.44,GR,1724983716
370,kuta,-8.7233,115.1723,27.970000000000027,78,40,2.57,ID,1724983717
371,orbetello,42.4408,11.2196,24.80000000000001,65,0,0.82,IT,1724983718
372,fada,7.25,4.0667,21.53000000000003,99,100,0.75,NG,1724983719
373,red hill,33.9996,-79.2581,26.05000000000001,1,0,3.22,US,1724983720
374,mata-utu,-13.2816,-176.1745,26.920000000000016,79,31,7.94,WF,1724983721
375,pasil,17.3833,121.1333,25.100000000000023,66,60,1.4,PH,1724983722
376,leava,-14.3,-178.1667,26.220000000000027,81,90,7.7,WF,1724983723
377,richlands,37.0932,-81.7937,19.30000000000001,84,0,1.56,US,1724983576
378,chatel-guyon,45.9167,3.0667,17.180000000000007,88,0,0.51,FR,1724983727
379,al mijlad,11.0333,27.7333,25.03000000000003,81,100,2.46,SD,1724983728
380,pisz,53.6274,21.8125,20.660000000000025,82,0,2.34,PL,1724983729
381,kapa'a,22.0752,-159.319,28.180000000000007,75,75,6.17,US,1724983730
382,ubatuba,-23.4339,-45.0711,15.800000000000011,81,0,1.56,BR,1724983731
383,malagon,39.2139,-4.0005,20.939999999999998,63,61,1.87,ES,1724983732
384,gilgit,35.9221,74.3087,18.890000000000043,75,99,1.24,PK,1724983734
385,champerico,14.3,-91.9167,28.99000000000001,75,100,3.92,GT,1724983737
386,kristiansund,63.1115,7.732,12.360000000000014,94,20,2.06,NO,1724983738
387,nar'yan-mar,67.6713,53.087,6.980000000000018,66,100,5.6,RU,1724983607
388,sidney,-33.8679,151.2073,28.58000000000004,32,0,9.77,AU,1724983451
389,solnechnyy,50.7214,136.6319,18.25,98,100,2.25,RU,1724983741
390,mossel bay,-34.1831,22.146,9.520000000000039,74,0,3.24,ZA,1724983742
391,happy valley-goose bay,53.3168,-60.3315,11.010000000000048,66,44,2.81,CA,1724983743
392,ajax,43.8501,-79.0329,17.350000000000023,88,0,0.0,CA,1724983590
393,grand falls-windsor,48.9332,-55.6649,8.060000000000002,90,16,2.98,CA,1724983745
394,medicine hat,50.0501,-110.6683,21.79000000000002,44,2,2.13,CA,1724983747
395,ape,57.5393,26.6929,16.150000000000034,98,92,2.33,LV,1724983748
396,magdagachi,53.45,125.8,17.400000000000034,67,66,2.44,RU,1724983749
397,dogondoutchi,13.6393,4.0287,25.960000000000036,79,100,6.7,NE,1724983750
398,erenhot,43.6475,111.9767,21.689999999999998,52,76,5.73,CN,1724983751
399,aripuana,-9.1667,-60.6333,25.660000000000025,38,5,0.49,BR,1724983752
400,tumaco,1.7986,-78.8156,24.860000000000014,87,54,2.72,CO,1724983593
401,berdigestyakh,62.0989,126.6992,14.240000000000009,40,99,1.95,RU,1724983754
402,tangalle,6.024,80.7911,26.57000000000005,84,100,4.35,LK,1724983755
403,zhangjiajie,29.1294,110.4783,28.660000000000025,74,15,0.93,CN,1724983756
404,viedma,-40.8135,-62.9967,5.400000000000034,62,0,3.93,AR,1724983744
405,castillos,-34.1667,-53.8333,13.010000000000048,91,100,3.69,UY,1724983759
406,palmer,42.1584,-72.3287,17.470000000000027,85,20,0.0,US,1724983590
407,saskatoon,52.1168,-106.6345,21.99000000000001,44,40,3.6,CA,1724983553
408,conception bay south,47.4999,-52.9981,12.629999999999995,79,86,8.84,CA,1724983762
409,kozhikode,11.25,75.7667,23.650000000000034,89,100,1.18,IN,1724983763
410,alofi,-19.0595,-169.9187,24.939999999999998,69,20,6.17,NU,1724983585
411,adam,22.3756,57.5233,30.710000000000036,47,79,2.69,OM,1724983616
412,simanggang,1.2472,111.4528,26.090000000000032,87,96,0.61,MY,1724983766
413,barnard castle,54.5415,-1.919,10.310000000000002,93,0,1.66,GB,1724983767
414,sao romao,40.4012,-7.7146,15.010000000000048,79,3,1.23,PT,1724983768
415,selebi-phikwe,-21.979,27.8498,13.800000000000011,84,100,6.62,BW,1724983769
416,bacalar,18.6667,-88.3833,28.060000000000002,89,75,0.0,MX,1724983770
417,jiangyan,32.5061,120.1428,29.629999999999995,69,0,2.15,CN,1724983772
418,buka,40.8108,69.1986,18.78000000000003,36,0,0.96,UZ,1724983631
419,castlegar,49.2998,-117.6689,21.83000000000004,53,5,1.57,CA,1724983761
420,turabah,21.2141,41.6331,26.590000000000032,42,81,2.96,SA,1724983775
421,nyeri,-0.4201,36.9476,14.129999999999995,93,85,1.79,KE,1724983776
422,aykhal,66.0,111.5,12.0,55,65,4.75,RU,1724983777
423,basco,20.4487,121.9702,29.220000000000027,75,100,0.91,PH,1724983778
424,puerto baquerizo moreno,-0.9,-89.6,19.860000000000014,92,70,6.45,EC,1724983779
425,batticaloa,7.7102,81.6924,27.260000000000048,73,100,1.98,LK,1724983780
426,zhangatas,43.5667,69.75,19.650000000000034,40,0,2.42,KZ,1724983781
427,yungay,-9.1383,-77.7436,16.850000000000023,59,34,1.07,PE,1724983782
428,alva,56.1528,-3.8051,6.7900000000000205,94,13,3.45,GB,1724983783
429,acarau,-2.8856,-40.12,24.920000000000016,82,10,7.3,BR,1724983785
430,dzerzhinskoye,56.8344,95.2283,15.340000000000032,79,6,1.57,RU,1724983786
431,knyaze-volkonskoye,48.4642,135.4567,21.189999999999998,74,100,4.53,RU,1724983787
432,nadym,65.5333,72.5167,7.8799999999999955,78,100,6.84,RU,1724983788
433,cadale,2.7603,46.3222,25.180000000000007,85,61,7.67,SO,1724983789
434,yaren,-0.5472,166.916,28.870000000000005,72,71,7.04,NR,1724983790
435,camapua,-19.5314,-54.0439,25.600000000000023,25,0,4.29,BR,1724983791
436,saldanha,-33.0117,17.9442,7.830000000000041,69,0,5.93,ZA,1724983792
437,kaynarca,41.0308,30.3075,19.32000000000005,86,0,1.82,TR,1724983793
438,dubbo,-32.25,148.6167,23.07000000000005,46,0,9.26,AU,1724983794
439,puerto aysen,-45.4,-72.7,5.2900000000000205,99,100,1.74,CL,1724983523
440,haiku-pauwela,20.9219,-156.3051,28.610000000000014,83,40,9.77,US,1724983798
441,selfoss,63.9331,-20.9971,8.910000000000025,92,95,3.32,IS,1724983799
442,la ronge,55.1001,-105.2842,14.100000000000023,80,37,2.23,CA,1724983800
443,karatau,43.1667,70.4667,19.150000000000034,42,0,1.24,KZ,1724983801
444,kizlyar,43.8469,46.715,23.629999999999995,52,0,8.93,RU,1724983802
445,newnham,-41.3833,147.1333,12.53000000000003,62,75,14.92,AU,1724983803
446,honavar,14.2833,74.45,25.55000000000001,90,100,2.23,IN,1724983804
447,touros,-5.1989,-35.4608,24.02000000000004,77,100,7.44,BR,1724983805
448,taoudenni,22.6783,-3.9836,33.52000000000004,36,35,2.92,ML,1724983806
449,la paz,-16.5,-68.15,8.100000000000023,72,20,3.09,BO,1724983621
450,mount isa,-20.7333,139.5,33.870000000000005,17,95,3.09,AU,1724983809
451,kavaratti,10.5669,72.642,27.129999999999995,84,100,5.75,IN,1724983810
452,iquique,-20.2208,-70.1431,13.939999999999998,77,75,1.11,CL,1724983811
453,lavras da mangabeira,-6.7533,-38.9644,24.920000000000016,41,11,4.64,BR,1724983812
454,lensk,60.7253,114.9278,11.5,92,100,4.08,RU,1724983813
455,senise,40.1471,16.2889,21.390000000000043,74,1,2.43,IT,1724983814
456,ivanivka,46.7208,34.553,21.060000000000002,42,88,4.53,UA,1724983815
457,mogadishu,2.0371,45.3438,24.970000000000027,87,48,6.91,SO,1724983816
458,kailua-kona,19.6406,-155.9956,29.980000000000018,83,40,5.14,US,1724983817
459,barah,13.7,30.3667,25.28000000000003,77,100,2.42,SD,1724983818
460,mwaro,-3.5,29.6667,14.800000000000011,77,14,2.02,BI,1724983819
461,belaya kholunitsa,58.84,50.8528,12.370000000000005,88,100,1.53,RU,1724983821
462,laascaanood,8.4774,47.3597,23.900000000000034,73,57,11.28,SO,1724983822
463,phang nga,8.4509,98.5298,28.180000000000007,80,80,1.64,TH,1724983823
464,hede,33.7681,120.2517,28.810000000000002,65,0,1.39,CN,1724983824
465,as sulayyil,20.4607,45.5779,31.810000000000002,18,22,3.64,SA,1724983825
466,meadow lakes,61.6247,-149.6011,16.25,72,100,0.89,US,1724983826
467,bridgewater,44.3835,-64.5155,13.120000000000005,86,0,1.36,CA,1724983827
468,aioun,16.6614,-9.6149,29.960000000000036,62,100,5.91,MR,1724983828
469,chonchi,-42.6128,-73.8092,4.510000000000048,75,5,0.95,CL,1724983605
470,hirara,24.8,125.2833,29.680000000000007,79,3,6.05,JP,1724983830
471,zhigalovo,54.8097,105.1578,15.28000000000003,79,43,1.07,RU,1724983831
472,kayes,14.0,-11.0,24.900000000000034,89,75,2.57,ML,1724983833
473,xining,36.6167,101.7667,21.939999999999998,71,100,1.72,CN,1724983834
474,mersa matruh,31.3525,27.2453,26.210000000000036,68,77,1.47,EG,1724983835
475,tarko-sale,64.9225,77.785,9.140000000000043,84,71,9.46,RU,1724983836
476,paraiso,9.8383,-83.8656,21.340000000000032,94,97,1.62,CR,1724983837
477,bruck an der leitha,48.0167,16.7667,21.33000000000004,64,20,1.83,AT,1724983838
478,colonia menno,-22.3667,-59.8167,25.910000000000025,28,0,4.61,PY,1724983839
479,usogorsk,63.4106,48.6872,7.6200000000000045,98,15,1.96,RU,1724983840
480,isaka,-3.9,32.9333,21.54000000000002,51,47,3.88,TZ,1724983841
481,bage,-31.3314,-54.1069,13.879999999999995,100,0,3.09,BR,1724983842
482,sao joao da barra,-21.6403,-41.0511,21.480000000000018,77,3,5.92,BR,1724983845
483,betio village,1.358,172.9211,28.870000000000005,72,94,7.05,KI,1724983846
484,akureyri,65.6835,-18.0878,9.960000000000036,66,100,5.09,IS,1724983847
485,island harbour,50.724,-1.2758,12.79000000000002,70,92,2.73,GB,1724983848
486,humaita,-7.5061,-63.0208,26.640000000000043,36,15,1.31,BR,1724983849
487,ciudad lazaro cardenas,17.9583,-102.2,27.870000000000005,79,100,2.5,MX,1724983754
488,boksitogorsk,59.474,33.8485,12.520000000000039,90,11,1.68,RU,1724983851
489,piquete,-22.6136,-45.1761,15.920000000000016,68,1,1.46,BR,1724983687
490,douentza,14.9951,-2.9517,27.100000000000023,73,100,4.32,ML,1724983853
491,avare,-23.0986,-48.9258,18.090000000000032,49,3,2.46,BR,1724983854
492,playa blanca,28.8643,-13.8281,22.060000000000002,76,58,8.82,ES,1724983855
493,richards bay,-28.783,32.0377,13.260000000000048,87,100,4.91,ZA,1724983857
494,mangrol,21.1167,70.1167,27.430000000000007,87,100,11.11,IN,1724983858
495,baruun-urt,46.6806,113.2792,17.410000000000025,45,79,1.89,MN,1724983859
496,susanville,40.4163,-120.653,29.340000000000032,19,0,0.89,US,1724983860
497,ambalangoda,6.2355,80.0538,28.879999999999995,81,100,5.59,LK,1724983861
498,okhotsk,59.3833,143.3,12.730000000000018,87,100,1.53,RU,1724983860
499,chui,-33.6971,-53.4616,13.860000000000014,94,100,5.14,UY,1724983863
500,celestun,20.8667,-90.4,27.910000000000025,82,100,4.47,MX,1724983864
501,west richland,46.3043,-119.3614,28.75,30,0,2.11,US,1724983866
502,magadan,59.5667,150.8,9.310000000000002,93,100,6.25,RU,1724983867
503,san mariano,7.5,126.0,27.840000000000032,75,100,1.71,PH,1724983868
504,brisas de zicatela,15.8369,-97.0419,28.28000000000003,78,99,2.58,MX,1724983870
505,opuwo,-18.0607,13.84,17.82000000000005,25,0,1.91,NA,1724983871
506,cao bang,22.6667,106.25,28.220000000000027,85,83,0.77,VN,1724983872
507,ikovka,55.6089,64.9375,11.629999999999995,85,49,3.23,RU,1724983873
508,rice lake,45.5061,-91.7382,20.180000000000007,90,100,3.6,US,1724983874
509,huaraz,-9.5333,-77.5333,14.200000000000045,62,43,1.01,PE,1724983875
510,chaumont,48.1167,5.1333,17.430000000000007,93,78,2.28,FR,1724983876
511,neryungri,56.6709,124.6491,8.420000000000016,91,100,5.51,RU,1724983877
512,benguela,-12.5763,13.4055,20.510000000000048,83,24,2.35,AO,1724983878
513,willowmore,-33.2926,23.4895,2.3600000000000136,89,0,3.05,ZA,1724983879
514,kolonia,50.9333,6.95,20.25,84,0,2.57,DE,1724983788
515,phan thiet,10.9333,108.1,29.060000000000002,69,59,5.23,VN,1724983882
516,sodra sandby,56.5667,16.6167,15.920000000000016,93,100,2.3,SE,1724983883
517,redencao,-4.2258,-38.7306,21.80000000000001,93,35,0.77,BR,1724983884
518,fort william,56.8165,-5.1121,10.730000000000018,96,98,2.16,GB,1724983885
519,ust-tsilma,65.441,52.1498,7.050000000000011,84,100,2.68,RU,1724983886
520,watertown,42.3709,-71.1828,16.53000000000003,73,0,0.0,US,1724983887
521,kassala,15.451,36.4,24.450000000000045,81,84,0.47,SD,1724983888
522,qujing,25.4833,103.7833,22.660000000000025,67,15,1.49,CN,1724983889
523,yichang,30.7144,111.2847,31.680000000000007,57,0,1.13,CN,1724983890
524,ust'-ilimsk,58.0006,102.6619,16.410000000000025,64,0,1.65,RU,1724983891
525,flekkefjord,58.2971,6.6607,9.950000000000045,93,20,1.51,NO,1724983893
526,port saint john's,-31.6229,29.5448,11.610000000000014,70,4,2.58,ZA,1724983894
527,sanctuary point,-35.1114,150.629,25.0,32,3,5.45,AU,1724983895
528,collingwood,44.4834,-80.2164,17.83000000000004,87,0,4.02,CA,1724983896
529,bol,13.4586,14.7147,25.450000000000045,83,100,7.7,TD,1724983897
530,el granada,37.5027,-122.4694,19.689999999999998,81,100,7.72,US,1724983881
531,beaver dam,43.4578,-88.8373,22.230000000000018,92,0,4.12,US,1724983899
532,vilcun,-38.65,-72.2333,6.390000000000043,79,0,1.58,CL,1724983900
533,taroa,8.7058,171.2275,28.680000000000007,77,27,6.25,MH,1724983901
534,kaa-khem,51.6833,94.7333,13.629999999999995,85,100,1.17,RU,1724983902
535,urengoy,65.9667,78.3667,9.230000000000018,83,74,7.79,RU,1724983708
536,nakhchivan,39.2089,45.4122,22.82000000000005,56,0,5.14,AZ,1724983905
537,isangel,-19.55,169.2667,27.060000000000002,50,75,2.06,VU,1724983906
538,tabou,4.423,-7.3528,23.370000000000005,90,95,3.32,CI,1724983907
539,cuenca,-2.8833,-78.9833,10.689999999999998,85,17,1.21,EC,1724983762
540,broome,42.2506,-75.833,21.29000000000002,91,100,3.09,US,1724983909
541,tamanrasset,22.785,5.5228,27.950000000000045,17,40,6.69,DZ,1724983910
542,el nido,11.1858,119.3956,29.52000000000004,82,100,5.14,PH,1724983911
543,birjand,32.8663,59.2211,11.629999999999995,44,0,4.29,IR,1724983912
544,kupang,-10.1667,123.5833,32.32000000000005,45,20,5.66,ID,1724983718
545,dapchi,12.4904,11.4944,21.77000000000004,91,100,5.37,NG,1724983914
546,spittal an der drau,46.8,13.5,16.02000000000004,92,7,2.14,AT,1724983915
547,nautanwa,27.4333,83.4167,29.340000000000032,74,53,0.51,IN,1724983916
548,guarapari,-20.6667,-40.4975,21.010000000000048,70,52,2.62,BR,1724983918
549,bikenibeu village,1.3673,173.1241,28.78000000000003,72,97,7.09,KI,1724983919
550,laojunmiao,39.8333,97.7333,23.960000000000036,53,92,3.24,CN,1724983920
551,san andres,12.5847,-81.7006,30.010000000000048,74,20,3.6,CO,1724983921
552,myrina,39.8797,25.0742,22.58000000000004,83,20,0.0,GR,1724983922
553,yelizovo,53.1873,158.3805,22.08000000000004,46,0,4.0,RU,1724983923
554,bel ombre,-4.6167,55.4167,25.560000000000002,88,89,11.47,SC,1724983924
555,xai-xai,-25.0519,33.6442,19.939999999999998,74,94,4.69,MZ,1724983926
556,miri,4.4148,114.0089,28.99000000000001,62,100,1.32,MY,1724983929
557,souillac,-20.5167,57.5167,21.420000000000016,64,84,8.02,MU,1724983742
558,banff,51.1762,-115.5698,11.939999999999998,79,0,1.96,CA,1724983931
559,mogocha,53.7333,119.7667,16.400000000000034,60,12,1.72,RU,1724983721
560,huautla de jimenez,18.1315,-96.8409,16.140000000000043,99,78,1.11,MX,1724983933
561,alta,69.9689,23.2717,16.590000000000032,72,20,4.63,NO,1724983934
562,cockburn town,21.4612,-71.1419,28.939999999999998,83,3,9.37,TC,1724983935
563,caleta de carquin,-11.0925,-77.6267,16.25,84,48,6.06,PE,1724983936
564,nago,26.5881,127.9761,30.55000000000001,72,99,4.61,JP,1724983937
565,laramie,41.3114,-105.5911,17.27000000000004,30,0,4.12,US,1724983938
566,pacific grove,36.6177,-121.9166,17.58000000000004,84,100,3.09,US,1724983940
567,sassandra,4.95,-6.0833,22.05000000000001,96,61,2.47,CI,1724983941
568,tralee,52.2704,-9.7026,9.730000000000018,96,15,1.24,IE,1724983942
569,suntar,62.1444,117.6319,12.930000000000007,70,95,1.48,RU,1724983943
570,saint-joseph,-21.3667,55.6167,18.210000000000036,77,48,6.52,RE,1724983944
571,atlantis,-33.5667,18.4834,4.110000000000014,81,3,3.82,ZA,1724983945
572,fort mcmurray,56.7268,-111.381,17.629999999999995,55,8,2.64,CA,1724983946
573,bamboo flat,11.7,92.7167,26.590000000000032,79,100,10.46,IN,1724983947
574,vrontados,38.4089,26.1328,23.120000000000005,73,0,3.25,GR,1724983948
575,ellsworth,44.5434,-68.4195,14.740000000000009,91,0,0.0,US,1724983949
576,ko pha ngan,9.7578,100.0291,25.439999999999998,77,100,4.99,TH,1724983950
577,ketchikan,55.3422,-131.6461,14.260000000000048,77,75,4.63,US,1724983951
578,mamuju,-2.6748,118.8885,26.5,83,100,3.94,ID,1724983953
579,mount gambier,-37.8333,140.7667,14.370000000000005,58,3,7.36,AU,1724983954
580,kingston,17.997,-76.7936,30.53000000000003,79,20,3.09,JM,1724983515
581,horta,38.5333,-28.6333,21.680000000000007,85,99,2.68,PT,1724983956
582,luohe,33.5717,114.0353,29.58000000000004,70,0,2.04,CN,1724983957
583,zherdevka,51.8486,41.4606,18.189999999999998,43,100,3.13,RU,1724983958
584,funafuti,-8.5243,179.1942,32.0,74,20,5.66,TV,1724983959
